{
"type": "FeatureCollection",
"name": "service_stations",
"crs": { "type": "name", "properties": { "name": "urn:ogc:def:crs:OGC:1.3:CRS84" } },
"features": [
{ "type": "Feature", "properties": { "Id": 0, "Name": "Metro Service Station", "Phone": "373-9134" }, "geometry": { "type": "Point", "coordinates": [ -78.658335798742371, 26.533133726712116 ] } },
{ "type": "Feature", "properties": { "Id": 0, "Name": "Allied Service Station", "Phone": "352-5010" }, "geometry": { "type": "Point", "coordinates": [ -78.739640602015569, 26.525017378377427 ] } },
{ "type": "Feature", "properties": { "Id": 0, "Name": "Hawksbill Service Station", "Phone": "352-2054" }, "geometry": { "type": "Point", "coordinates": [ -78.733496373300369, 26.517532519035775 ] } },
{ "type": "Feature", "properties": { "Id": 0, "Name": "Queen's Hwy Sevice Centre", "Phone": "351-6799" }, "geometry": { "type": "Point", "coordinates": [ -78.702342307860434, 26.54272450612465 ] } },
{ "type": "Feature", "properties": { "Id": 0, "Name": "East Mall Service Centre", "Phone": "352-5301" }, "geometry": { "type": "Point", "coordinates": [ -78.694642496992458, 26.539535120609479 ] } },
{ "type": "Feature", "properties": { "Id": 0, "Name": "Sunrise Service Centre", "Phone": "351-7703" }, "geometry": { "type": "Point", "coordinates": [ -78.69300756614706, 26.517546877833208 ] } },
{ "type": "Feature", "properties": { "Id": 0, "Name": "Boulevard Services Limited", "Phone": "373-6700" }, "geometry": { "type": "Point", "coordinates": [ -78.679178358228228, 26.517310071909687 ] } },
{ "type": "Feature", "properties": { "Id": 0, "Name": "Municipal Motors Limited", "Phone": "373-6290" }, "geometry": { "type": "Point", "coordinates": [ -78.668433277719615, 26.519458207076976 ] } },
{ "type": "Feature", "properties": { "Id": 0, "Name": "Cooper's Service Station", "Phone": "373-2787" }, "geometry": { "type": "Point", "coordinates": [ -78.637906953205473, 26.519499465162852 ] } },
{ "type": "Feature", "properties": { "Id": 0, "Name": "Jetwash Service Station", "Phone": "352-7441" }, "geometry": { "type": "Point", "coordinates": [ -78.697786392914878, 26.532824484733297 ] } },
{ "type": "Feature", "properties": { "Id": 0, "Name": "Petro Express", "Phone": "352-8910" }, "geometry": { "type": "Point", "coordinates": [ -78.761132301749129, 26.517659920937522 ] } },
{ "type": "Feature", "properties": { "Id": 0, "Name": "Texaco Service Station", "Phone": null }, "geometry": { "type": "Point", "coordinates": [ -78.790245617830919, 26.532069694190902 ] } }
]
}
